{
    "type": "FeatureCollection",
    "name": "populated_places_4326",
    "crs": { "type": "name", "properties": { "name": "urn:ogc:def:crs:OGC:1.3:CRS84" } },
    "features": [
    { "type": "Feature", "properties": { "name": "Vatican City", "pop_min": 832 }, "geometry": { "type": "Point", "coordinates": [ 12.4533865, 41.9032822 ] } },
    { "type": "Feature", "properties": { "name": "San Marino", "pop_min": 29000 }, "geometry": { "type": "Point", "coordinates": [ 12.4417702, 43.9360958 ] } },
    { "type": "Feature", "properties": { "name": "Vaduz", "pop_min": 5342 }, "geometry": { "type": "Point", "coordinates": [ 9.5166695, 47.1337238 ] } },
    { "type": "Feature", "properties": { "name": "Lobamba", "pop_min": 4557 }, "geometry": { "type": "Point", "coordinates": [ 31.1999971, -26.4666675 ] } },
    { "type": "Feature", "properties": { "name": "Luxembourg", "pop_min": 76684 }, "geometry": { "type": "Point", "coordinates": [ 6.1300028, 49.611660399999984 ] } },
    { "type": "Feature", "properties": { "name": "Palikir", "pop_min": 4645 }, "geometry": { "type": "Point", "coordinates": [ 158.1499743, 6.9166437 ] } },
    { "type": "Feature", "properties": { "name": "Majuro", "pop_min": 20500 }, "geometry": { "type": "Point", "coordinates": [ 171.380000200000012, 7.1030043 ] } },
    { "type": "Feature", "properties": { "name": "Funafuti", "pop_min": 4749 }, "geometry": { "type": "Point", "coordinates": [ 179.21664709999996, -8.516652 ] } },
    { "type": "Feature", "properties": { "name": "Melekeok", "pop_min": 7026 }, "geometry": { "type": "Point", "coordinates": [ 134.626548500000013, 7.4873962 ] } },
    { "type": "Feature", "properties": { "name": "Bir Lehlou", "pop_min": 200 }, "geometry": { "type": "Point", "coordinates": [ -9.6525222, 26.1191667 ] } },
    { "type": "Feature", "properties": { "name": "Monaco", "pop_min": 36371 }, "geometry": { "type": "Point", "coordinates": [ 7.4069132, 43.7396457 ] } },
    { "type": "Feature", "properties": { "name": "Tarawa", "pop_min": 22534 }, "geometry": { "type": "Point", "coordinates": [ 173.017570799999959, 1.3381875 ] } },
    { "type": "Feature", "properties": { "name": "Moroni", "pop_min": 42872 }, "geometry": { "type": "Point", "coordinates": [ 43.2402441, -11.7041577 ] } },
    { "type": "Feature", "properties": { "name": "Andorra", "pop_min": 22256 }, "geometry": { "type": "Point", "coordinates": [ 1.526594255165481, 42.510753494167091 ] } },
    { "type": "Feature", "properties": { "name": "Port-of-Spain", "pop_min": 49031 }, "geometry": { "type": "Point", "coordinates": [ -61.5170309, 10.6519971 ] } },
    { "type": "Feature", "properties": { "name": "Kigali", "pop_min": 745261 }, "geometry": { "type": "Point", "coordinates": [ 30.0585859, -1.9516442 ] } },
    { "type": "Feature", "properties": { "name": "Mbabane", "pop_min": 76218 }, "geometry": { "type": "Point", "coordinates": [ 31.1333345, -26.3166508 ] } },
    { "type": "Feature", "properties": { "name": "Juba", "pop_min": 111975 }, "geometry": { "type": "Point", "coordinates": [ 31.5800256, 4.8299752 ] } },
    { "type": "Feature", "properties": { "name": "The Hague", "pop_min": 501725 }, "geometry": { "type": "Point", "coordinates": [ 4.2699613, 52.0800368 ] } },
    { "type": "Feature", "properties": { "name": "Ljubljana", "pop_min": 255115 }, "geometry": { "type": "Point", "coordinates": [ 14.514969, 46.0552883 ] } },
    { "type": "Feature", "properties": { "name": "Bratislava", "pop_min": 373687 }, "geometry": { "type": "Point", "coordinates": [ 17.1169808, 48.1500183 ] } },
    { "type": "Feature", "properties": { "name": "Doha", "pop_min": 731310 }, "geometry": { "type": "Point", "coordinates": [ 51.5329679, 25.286556 ] } },
    { "type": "Feature", "properties": { "name": "Podgorica", "pop_min": 136473 }, "geometry": { "type": "Point", "coordinates": [ 19.2663069, 42.4659725 ] } },
    { "type": "Feature", "properties": { "name": "Sri Jayawardenepura Kotte", "pop_min": 115826 }, "geometry": { "type": "Point", "coordinates": [ 79.949993, 6.9000039 ] } },
    { "type": "Feature", "properties": { "name": "Baguio", "pop_min": 272714 }, "geometry": { "type": "Point", "coordinates": [ 120.569942600000019, 16.4299907 ] } },
    { "type": "Feature", "properties": { "name": "Dodoma", "pop_min": 180541 }, "geometry": { "type": "Point", "coordinates": [ 35.7500036, -6.1833061 ] } },
    { "type": "Feature", "properties": { "name": "Bern", "pop_min": 121631 }, "geometry": { "type": "Point", "coordinates": [ 7.4669755, 46.9166828 ] } },
    { "type": "Feature", "properties": { "name": "Laayoune", "pop_min": 176365 }, "geometry": { "type": "Point", "coordinates": [ -13.2000059, 27.1499823 ] } },
    { "type": "Feature", "properties": { "name": "Pristina", "pop_min": 198214 }, "geometry": { "type": "Point", "coordinates": [ 21.1659843, 42.6667096 ] } },
    { "type": "Feature", "properties": { "name": "Roseau", "pop_min": 16571 }, "geometry": { "type": "Point", "coordinates": [ -61.387013, 15.3010156 ] } },
    { "type": "Feature", "properties": { "name": "Djibouti", "pop_min": 604013 }, "geometry": { "type": "Point", "coordinates": [ 43.1480017, 11.595014499999985 ] } },
    { "type": "Feature", "properties": { "name": "Putrajaya", "pop_min": 50000 }, "geometry": { "type": "Point", "coordinates": [ 101.6950374044619, 2.932515212266738 ] } },
    { "type": "Feature", "properties": { "name": "Kyoto", "pop_min": 1459640 }, "geometry": { "type": "Point", "coordinates": [ 135.7480521, 35.0319381 ] } },
    { "type": "Feature", "properties": { "name": "Banjul", "pop_min": 34589 }, "geometry": { "type": "Point", "coordinates": [ -16.5917015, 13.4538765 ] } },
    { "type": "Feature", "properties": { "name": "Skopje", "pop_min": 474889 }, "geometry": { "type": "Point", "coordinates": [ 21.4334615, 42.0000061 ] } },
    { "type": "Feature", "properties": { "name": "Bridgetown", "pop_min": 96578 }, "geometry": { "type": "Point", "coordinates": [ -59.6165267, 13.1020026 ] } },
    { "type": "Feature", "properties": { "name": "Porto-Novo", "pop_min": 234168 }, "geometry": { "type": "Point", "coordinates": [ 2.6166255, 6.483311 ] } },
    { "type": "Feature", "properties": { "name": "Bujumbura", "pop_min": 331700 }, "geometry": { "type": "Point", "coordinates": [ 29.3600061, -3.3760872 ] } },
    { "type": "Feature", "properties": { "name": "Kingstown", "pop_min": 24518 }, "geometry": { "type": "Point", "coordinates": [ -61.220236420747256, 13.155756013621154 ] } },
    { "type": "Feature", "properties": { "name": "Castries", "pop_min": 10634 }, "geometry": { "type": "Point", "coordinates": [ -60.992875434353806, 14.007874585883359 ] } },
    { "type": "Feature", "properties": { "name": "Basseterre", "pop_min": 15500 }, "geometry": { "type": "Point", "coordinates": [ -62.7170093, 17.3020305 ] } },
    { "type": "Feature", "properties": { "name": "Port Louis", "pop_min": 148416 }, "geometry": { "type": "Point", "coordinates": [ 57.4999939, -20.1666386 ] } },
    { "type": "Feature", "properties": { "name": "Saint George's", "pop_min": 27343 }, "geometry": { "type": "Point", "coordinates": [ -61.7416432, 12.0526334 ] } },
    { "type": "Feature", "properties": { "name": "Manama", "pop_min": 157474 }, "geometry": { "type": "Point", "coordinates": [ 50.5830517, 26.2361363 ] } },
    { "type": "Feature", "properties": { "name": "Saint John's", "pop_min": 24226 }, "geometry": { "type": "Point", "coordinates": [ -61.850033799999984, 17.118036499999988 ] } },
    { "type": "Feature", "properties": { "name": "Montevideo", "pop_min": 5324 }, "geometry": { "type": "Point", "coordinates": [ -56.186823378310741, -34.905376389708074 ] } },
    { "type": "Feature", "properties": { "name": "Lomé", "pop_min": 749700 }, "geometry": { "type": "Point", "coordinates": [ 1.2208113, 6.1338829 ] } },
    { "type": "Feature", "properties": { "name": "Tunis", "pop_min": 728453 }, "geometry": { "type": "Point", "coordinates": [ 10.1796781, 36.802778099999983 ] } },
    { "type": "Feature", "properties": { "name": "Abu Dhabi", "pop_min": 560230 }, "geometry": { "type": "Point", "coordinates": [ 54.3665934, 24.4666836 ] } },
    { "type": "Feature", "properties": { "name": "Ashgabat", "pop_min": 577982 }, "geometry": { "type": "Point", "coordinates": [ 58.3832991, 37.949994899999986 ] } },
    { "type": "Feature", "properties": { "name": "Lusaka", "pop_min": 1267440 }, "geometry": { "type": "Point", "coordinates": [ 28.2813817, -15.414698400000013 ] } },
    { "type": "Feature", "properties": { "name": "Harare", "pop_min": 1542813 }, "geometry": { "type": "Point", "coordinates": [ 31.0427636, -17.8158438 ] } },
    { "type": "Feature", "properties": { "name": "Dili", "pop_min": 193563 }, "geometry": { "type": "Point", "coordinates": [ 125.579455899999985, -8.5593884 ] } },
    { "type": "Feature", "properties": { "name": "Port Vila", "pop_min": 35901 }, "geometry": { "type": "Point", "coordinates": [ 168.316640599999971, -17.73335040000001 ] } },
    { "type": "Feature", "properties": { "name": "Tegucigalpa", "pop_min": 850848 }, "geometry": { "type": "Point", "coordinates": [ -87.2194752, 14.1039908 ] } },
    { "type": "Feature", "properties": { "name": "Georgetown", "pop_min": 235017 }, "geometry": { "type": "Point", "coordinates": [ -58.1670286, 6.8019737 ] } },
    { "type": "Feature", "properties": { "name": "Reykjavík", "pop_min": 113906 }, "geometry": { "type": "Point", "coordinates": [ -21.936546009025054, 64.143459463170331 ] } },
    { "type": "Feature", "properties": { "name": "Port-au-Prince", "pop_min": 1234742 }, "geometry": { "type": "Point", "coordinates": [ -72.3379804, 18.5429705 ] } },
    { "type": "Feature", "properties": { "name": "Kampala", "pop_min": 1353189 }, "geometry": { "type": "Point", "coordinates": [ 32.5813777, 0.3186048 ] } },
    { "type": "Feature", "properties": { "name": "Paramaribo", "pop_min": 223757 }, "geometry": { "type": "Point", "coordinates": [ -55.1670309, 5.8350301 ] } },
    { "type": "Feature", "properties": { "name": "Niamey", "pop_min": 742791 }, "geometry": { "type": "Point", "coordinates": [ 2.1147102, 13.5186518 ] } },
    { "type": "Feature", "properties": { "name": "Dushanbe", "pop_min": 679400 }, "geometry": { "type": "Point", "coordinates": [ 68.773879399999984, 38.560035199999987 ] } },
    { "type": "Feature", "properties": { "name": "Asunción", "pop_min": 11693 }, "geometry": { "type": "Point", "coordinates": [ -57.625833755283011, -25.290670836109641 ] } },
    { "type": "Feature", "properties": { "name": "Managua", "pop_min": 920000 }, "geometry": { "type": "Point", "coordinates": [ -86.270437499999986, 12.1549624 ] } },
    { "type": "Feature", "properties": { "name": "Freetown", "pop_min": 13768 }, "geometry": { "type": "Point", "coordinates": [ -13.2361616, 8.4719573 ] } },
    { "type": "Feature", "properties": { "name": "Islamabad", "pop_min": 601600 }, "geometry": { "type": "Point", "coordinates": [ 73.080630177648246, 33.689368483707078 ] } },
    { "type": "Feature", "properties": { "name": "Kathmandu", "pop_min": 895000 }, "geometry": { "type": "Point", "coordinates": [ 85.3146964, 27.7186378 ] } },
    { "type": "Feature", "properties": { "name": "Bloemfontein", "pop_min": 456669 }, "geometry": { "type": "Point", "coordinates": [ 26.2299129, -29.1199939 ] } },
    { "type": "Feature", "properties": { "name": "Pretoria", "pop_min": 1338000 }, "geometry": { "type": "Point", "coordinates": [ 28.2274832, -25.704974700000012 ] } },
    { "type": "Feature", "properties": { "name": "Port Moresby", "pop_min": 251136 }, "geometry": { "type": "Point", "coordinates": [ 147.192503599999981, -9.4647078 ] } },
    { "type": "Feature", "properties": { "name": "Honiara", "pop_min": 56298 }, "geometry": { "type": "Point", "coordinates": [ 159.949765699999972, -9.4379943 ] } },
    { "type": "Feature", "properties": { "name": "Panama City", "pop_min": 408168 }, "geometry": { "type": "Point", "coordinates": [ -79.534983, 8.969963 ] } },
    { "type": "Feature", "properties": { "name": "Rabat", "pop_min": 1655753 }, "geometry": { "type": "Point", "coordinates": [ -6.8364082, 34.0253073 ] } },
    { "type": "Feature", "properties": { "name": "Chișinău", "pop_min": 635994 }, "geometry": { "type": "Point", "coordinates": [ 28.8577111, 47.0050236 ] } },
    { "type": "Feature", "properties": { "name": "Maputo", "pop_min": 1191613 }, "geometry": { "type": "Point", "coordinates": [ 32.5872171, -25.9533316 ] } },
    { "type": "Feature", "properties": { "name": "Mogadishu", "pop_min": 875388 }, "geometry": { "type": "Point", "coordinates": [ 45.3647318, 2.0686272 ] } },
    { "type": "Feature", "properties": { "name": "Muscat", "pop_min": 586861 }, "geometry": { "type": "Point", "coordinates": [ 58.378310584587076, 23.585179014766837 ] } },
    { "type": "Feature", "properties": { "name": "Colombo", "pop_min": 217000 }, "geometry": { "type": "Point", "coordinates": [ 79.8577506, 6.9319658 ] } },
    { "type": "Feature", "properties": { "name": "Ulaanbaatar", "pop_min": 769612 }, "geometry": { "type": "Point", "coordinates": [ 106.9146699, 47.9186193 ] } },
    { "type": "Feature", "properties": { "name": "Windhoek", "pop_min": 262796 }, "geometry": { "type": "Point", "coordinates": [ 17.0835461, -22.5700061 ] } },
    { "type": "Feature", "properties": { "name": "Abuja", "pop_min": 162135 }, "geometry": { "type": "Point", "coordinates": [ 7.489505042885862, 9.054620406360842 ] } },
    { "type": "Feature", "properties": { "name": "Bissau", "pop_min": 388028 }, "geometry": { "type": "Point", "coordinates": [ -15.5983608, 11.8650238 ] } },
    { "type": "Feature", "properties": { "name": "Amman", "pop_min": 1060000 }, "geometry": { "type": "Point", "coordinates": [ 35.9313541, 31.9519711 ] } },
    { "type": "Feature", "properties": { "name": "Vilnius", "pop_min": 507029 }, "geometry": { "type": "Point", "coordinates": [ 25.3166353, 54.683366299999989 ] } },
    { "type": "Feature", "properties": { "name": "Riga", "pop_min": 705033 }, "geometry": { "type": "Point", "coordinates": [ 24.0999654, 56.9500238 ] } },
    { "type": "Feature", "properties": { "name": "Bishkek", "pop_min": 804212 }, "geometry": { "type": "Point", "coordinates": [ 74.5832584, 42.8750253 ] } },
    { "type": "Feature", "properties": { "name": "Maseru", "pop_min": 118355 }, "geometry": { "type": "Point", "coordinates": [ 27.4832731, -29.3166744 ] } },
    { "type": "Feature", "properties": { "name": "Antananarivo", "pop_min": 1391433 }, "geometry": { "type": "Point", "coordinates": [ 47.514678, -18.9146915 ] } },
    { "type": "Feature", "properties": { "name": "Quito", "pop_min": 1399814 }, "geometry": { "type": "Point", "coordinates": [ -78.501997, -0.2130423 ] } },
    { "type": "Feature", "properties": { "name": "San José", "pop_min": 1724 }, "geometry": { "type": "Point", "coordinates": [ -84.078813969646319, 9.930370727948466 ] } },
    { "type": "Feature", "properties": { "name": "San Salvador", "pop_min": 2807 }, "geometry": { "type": "Point", "coordinates": [ -89.215575804527617, 13.703280259193864 ] } },
    { "type": "Feature", "properties": { "name": "Kingston", "pop_min": 664973 }, "geometry": { "type": "Point", "coordinates": [ -76.7674337, 17.9770766 ] } },
    { "type": "Feature", "properties": { "name": "N'Djamena", "pop_min": 681387 }, "geometry": { "type": "Point", "coordinates": [ 15.0472025, 12.1150424 ] } },
    { "type": "Feature", "properties": { "name": "Malabo", "pop_min": 155963 }, "geometry": { "type": "Point", "coordinates": [ 8.7832775, 3.7500153 ] } },
    { "type": "Feature", "properties": { "name": "Asmara", "pop_min": 563930 }, "geometry": { "type": "Point", "coordinates": [ 38.9333235, 15.3333393 ] } },
    { "type": "Feature", "properties": { "name": "Zagreb", "pop_min": 698966 }, "geometry": { "type": "Point", "coordinates": [ 15.9999947, 45.8000067 ] } },
    { "type": "Feature", "properties": { "name": "Tallinn", "pop_min": 340027 }, "geometry": { "type": "Point", "coordinates": [ 24.7280407, 59.4338774 ] } },
    { "type": "Feature", "properties": { "name": "Lilongwe", "pop_min": 646750 }, "geometry": { "type": "Point", "coordinates": [ 33.783302, -13.9832951 ] } },
    { "type": "Feature", "properties": { "name": "Guatemala City", "pop_min": 994938 }, "geometry": { "type": "Point", "coordinates": [ -90.528911399999984, 14.6230805 ] } },
    { "type": "Feature", "properties": { "name": "Libreville", "pop_min": 483355 }, "geometry": { "type": "Point", "coordinates": [ 9.457965, 0.3853886 ] } },
    { "type": "Feature", "properties": { "name": "Suva", "pop_min": 88271 }, "geometry": { "type": "Point", "coordinates": [ 178.441707299999962, -18.1330159 ] } },
    { "type": "Feature", "properties": { "name": "Valparaíso", "pop_min": 15938 }, "geometry": { "type": "Point", "coordinates": [ -71.617026191546088, -33.047739362696305 ] } },
    { "type": "Feature", "properties": { "name": "Nouakchott", "pop_min": 661400 }, "geometry": { "type": "Point", "coordinates": [ -15.9753404, 18.086427 ] } },
    { "type": "Feature", "properties": { "name": "Bamako", "pop_min": 1297281 }, "geometry": { "type": "Point", "coordinates": [ -8.001985, 12.6519605 ] } },
    { "type": "Feature", "properties": { "name": "Beirut", "pop_min": 1712125 }, "geometry": { "type": "Point", "coordinates": [ 35.5077624, 33.873921 ] } },
    { "type": "Feature", "properties": { "name": "Tbilisi", "pop_min": 1005257 }, "geometry": { "type": "Point", "coordinates": [ 44.7888496, 41.7269558 ] } },
    { "type": "Feature", "properties": { "name": "Nur-Sultan", "pop_min": 325021 }, "geometry": { "type": "Point", "coordinates": [ 71.4277742, 51.1811253 ] } },
    { "type": "Feature", "properties": { "name": "Vientiane", "pop_min": 570348 }, "geometry": { "type": "Point", "coordinates": [ 102.59998, 17.966692699999985 ] } },
    { "type": "Feature", "properties": { "name": "Brazzaville", "pop_min": 1163890 }, "geometry": { "type": "Point", "coordinates": [ 15.2827436, -4.2572399 ] } },
    { "type": "Feature", "properties": { "name": "Conakry", "pop_min": 1494000 }, "geometry": { "type": "Point", "coordinates": [ -13.6821809, 9.5334687 ] } },
    { "type": "Feature", "properties": { "name": "Yamoussoukro", "pop_min": 194530 }, "geometry": { "type": "Point", "coordinates": [ -5.2755026, 6.818381 ] } },
    { "type": "Feature", "properties": { "name": "Ottawa", "pop_min": 812129 }, "geometry": { "type": "Point", "coordinates": [ -75.701961199999985, 45.4186427 ] } },
    { "type": "Feature", "properties": { "name": "Belgrade", "pop_min": 1099000 }, "geometry": { "type": "Point", "coordinates": [ 20.4660448, 44.8205913 ] } },
    { "type": "Feature", "properties": { "name": "Bandar Seri Begawan", "pop_min": 140000 }, "geometry": { "type": "Point", "coordinates": [ 114.9332841, 4.8833311 ] } },
    { "type": "Feature", "properties": { "name": "Sucre", "pop_min": 221736 }, "geometry": { "type": "Point", "coordinates": [ -65.259515599999986, -19.0409708 ] } },
    { "type": "Feature", "properties": { "name": "Belmopan", "pop_min": 13381 }, "geometry": { "type": "Point", "coordinates": [ -88.767073, 17.2520335 ] } },
    { "type": "Feature", "properties": { "name": "Bangui", "pop_min": 622771 }, "geometry": { "type": "Point", "coordinates": [ 18.5582881, 4.3666443 ] } },
    { "type": "Feature", "properties": { "name": "Yaoundé", "pop_min": 1060587 }, "geometry": { "type": "Point", "coordinates": [ 11.5147049, 3.8686465 ] } },
    { "type": "Feature", "properties": { "name": "Tirana", "pop_min": 421286 }, "geometry": { "type": "Point", "coordinates": [ 19.818883, 41.3275407 ] } },
    { "type": "Feature", "properties": { "name": "Yerevan", "pop_min": 1093485 }, "geometry": { "type": "Point", "coordinates": [ 44.5116055, 40.1830966 ] } },
    { "type": "Feature", "properties": { "name": "Baku", "pop_min": 1892000 }, "geometry": { "type": "Point", "coordinates": [ 49.8602713, 40.3972179 ] } },
    { "type": "Feature", "properties": { "name": "Phnom Penh", "pop_min": 1466000 }, "geometry": { "type": "Point", "coordinates": [ 104.9146886, 11.551976 ] } },
    { "type": "Feature", "properties": { "name": "La Paz", "pop_min": 812799 }, "geometry": { "type": "Point", "coordinates": [ -68.151931, -16.4960278 ] } },
    { "type": "Feature", "properties": { "name": "Cotonou", "pop_min": 690584 }, "geometry": { "type": "Point", "coordinates": [ 2.404354790887952, 6.362980392242671 ] } },
    { "type": "Feature", "properties": { "name": "Sofia", "pop_min": 874827 }, "geometry": { "type": "Point", "coordinates": [ 23.3147082, 42.6852953 ] } },
    { "type": "Feature", "properties": { "name": "Minsk", "pop_min": 1577138 }, "geometry": { "type": "Point", "coordinates": [ 27.5646813, 53.901923299999986 ] } },
    { "type": "Feature", "properties": { "name": "Thimphu", "pop_min": 79185 }, "geometry": { "type": "Point", "coordinates": [ 89.639014, 27.472985899999987 ] } },
    { "type": "Feature", "properties": { "name": "Gaborone", "pop_min": 159243 }, "geometry": { "type": "Point", "coordinates": [ 25.9119478, -24.6463135 ] } },
    { "type": "Feature", "properties": { "name": "Canberra", "pop_min": 234032 }, "geometry": { "type": "Point", "coordinates": [ 149.1290262, -35.2830285 ] } },
    { "type": "Feature", "properties": { "name": "Ouagadougou", "pop_min": 835457 }, "geometry": { "type": "Point", "coordinates": [ -1.5266696, 12.3722618 ] } },
    { "type": "Feature", "properties": { "name": "Sarajevo", "pop_min": 628902 }, "geometry": { "type": "Point", "coordinates": [ 18.3830017, 43.8500224 ] } },
    { "type": "Feature", "properties": { "name": "Naypyidaw", "pop_min": 194824 }, "geometry": { "type": "Point", "coordinates": [ 96.1166727, 19.7685029 ] } },
    { "type": "Feature", "properties": { "name": "Nuku'alofa", "pop_min": 23658 }, "geometry": { "type": "Point", "coordinates": [ -175.220564499999966, -21.1385124 ] } },
    { "type": "Feature", "properties": { "name": "Hargeisa", "pop_min": 247018 }, "geometry": { "type": "Point", "coordinates": [ 44.06531, 9.5600224 ] } },
    { "type": "Feature", "properties": { "name": "Victoria", "pop_min": 22881 }, "geometry": { "type": "Point", "coordinates": [ 55.4499898, -4.6166317 ] } },
    { "type": "Feature", "properties": { "name": "São Tomé", "pop_min": 56166 }, "geometry": { "type": "Point", "coordinates": [ 6.729649806269851, 0.337466406982617 ] } },
    { "type": "Feature", "properties": { "name": "Apia", "pop_min": 37708 }, "geometry": { "type": "Point", "coordinates": [ -171.768598976883453, -13.835714958212938 ] } },
    { "type": "Feature", "properties": { "name": "Valletta", "pop_min": 6966 }, "geometry": { "type": "Point", "coordinates": [ 14.5147107, 35.8997325 ] } },
    { "type": "Feature", "properties": { "name": "Malé", "pop_min": 103693 }, "geometry": { "type": "Point", "coordinates": [ 73.5089005260037, 4.17203699470936 ] } },
    { "type": "Feature", "properties": { "name": "Jerusalem", "pop_min": 801000 }, "geometry": { "type": "Point", "coordinates": [ 35.2066259, 31.7784078 ] } },
    { "type": "Feature", "properties": { "name": "Praia", "pop_min": 88859 }, "geometry": { "type": "Point", "coordinates": [ -23.5166889, 14.916698 ] } },
    { "type": "Feature", "properties": { "name": "Nassau", "pop_min": 160966 }, "geometry": { "type": "Point", "coordinates": [ -77.35004379999998, 25.083390099999985 ] } },
    { "type": "Feature", "properties": { "name": "Nicosia", "pop_min": 200452 }, "geometry": { "type": "Point", "coordinates": [ 33.3666349, 35.166676499999987 ] } },
    { "type": "Feature", "properties": { "name": "Wellington", "pop_min": 393400 }, "geometry": { "type": "Point", "coordinates": [ 174.777200946900678, -41.292067992315104 ] } },
    { "type": "Feature", "properties": { "name": "Hanoi", "pop_min": 1431270 }, "geometry": { "type": "Point", "coordinates": [ 105.84806829999998, 21.0352731 ] } },
    { "type": "Feature", "properties": { "name": "Ankara", "pop_min": 3307379 }, "geometry": { "type": "Point", "coordinates": [ 32.8624458, 39.9291844 ] } },
    { "type": "Feature", "properties": { "name": "Budapest", "pop_min": 1679000 }, "geometry": { "type": "Point", "coordinates": [ 19.0813748, 47.5019522 ] } },
    { "type": "Feature", "properties": { "name": "Sanaa", "pop_min": 1835853 }, "geometry": { "type": "Point", "coordinates": [ 44.2046475, 15.3566792 ] } },
    { "type": "Feature", "properties": { "name": "Bucharest", "pop_min": 1742194 }, "geometry": { "type": "Point", "coordinates": [ 26.0980008, 44.4353177 ] } },
    { "type": "Feature", "properties": { "name": "Damascus", "pop_min": 2466000 }, "geometry": { "type": "Point", "coordinates": [ 36.29805, 33.501979899999988 ] } },
    { "type": "Feature", "properties": { "name": "Lisbon", "pop_min": 517802 }, "geometry": { "type": "Point", "coordinates": [ -9.1468122, 38.7246687 ] } },
    { "type": "Feature", "properties": { "name": "Khartoum", "pop_min": 1974647 }, "geometry": { "type": "Point", "coordinates": [ 32.5322334, 15.5900241 ] } },
    { "type": "Feature", "properties": { "name": "Oslo", "pop_min": 580000 }, "geometry": { "type": "Point", "coordinates": [ 10.7480333, 59.918636099999986 ] } },
    { "type": "Feature", "properties": { "name": "Warsaw", "pop_min": 1702139 }, "geometry": { "type": "Point", "coordinates": [ 21.005346737742283, 52.230871973539507 ] } },
    { "type": "Feature", "properties": { "name": "Pyongyang", "pop_min": 2498797 }, "geometry": { "type": "Point", "coordinates": [ 125.75274490000001, 39.0213846 ] } },
    { "type": "Feature", "properties": { "name": "Dar es Salaam", "pop_min": 2698652 }, "geometry": { "type": "Point", "coordinates": [ 39.266396, -6.7980667 ] } },
    { "type": "Feature", "properties": { "name": "Dublin", "pop_min": 968976 }, "geometry": { "type": "Point", "coordinates": [ -6.256979517281132, 53.346731248983133 ] } },
    { "type": "Feature", "properties": { "name": "Monrovia", "pop_min": 785662 }, "geometry": { "type": "Point", "coordinates": [ -10.7996604, 6.3145816 ] } },
    { "type": "Feature", "properties": { "name": "Kuala Lumpur", "pop_min": 1448000 }, "geometry": { "type": "Point", "coordinates": [ 101.688699291061937, 3.13979694393525 ] } },
    { "type": "Feature", "properties": { "name": "Havana", "pop_min": 1990917 }, "geometry": { "type": "Point", "coordinates": [ -82.366128, 23.133904699999988 ] } },
    { "type": "Feature", "properties": { "name": "Prague", "pop_min": 2087 }, "geometry": { "type": "Point", "coordinates": [ 14.422939486203864, 50.086966537321494 ] } },
    { "type": "Feature", "properties": { "name": "Kuwait City", "pop_min": 60064 }, "geometry": { "type": "Point", "coordinates": [ 47.9763553, 29.3716635 ] } },
    { "type": "Feature", "properties": { "name": "Santo Domingo", "pop_min": 2873 }, "geometry": { "type": "Point", "coordinates": [ -69.929742315790563, 18.470745058048369 ] } },
    { "type": "Feature", "properties": { "name": "Accra", "pop_min": 1963264 }, "geometry": { "type": "Point", "coordinates": [ -0.2186616, 5.5519805 ] } },
    { "type": "Feature", "properties": { "name": "Tripoli", "pop_min": 229398 }, "geometry": { "type": "Point", "coordinates": [ 13.1800118, 32.8925 ] } },
    { "type": "Feature", "properties": { "name": "Tel Aviv", "pop_min": 378358 }, "geometry": { "type": "Point", "coordinates": [ 34.7680659, 32.0819373 ] } },
    { "type": "Feature", "properties": { "name": "Helsinki", "pop_min": 558457 }, "geometry": { "type": "Point", "coordinates": [ 24.932456915043964, 60.163803849485681 ] } },
    { "type": "Feature", "properties": { "name": "København", "pop_min": 1085000 }, "geometry": { "type": "Point", "coordinates": [ 12.5615399, 55.68051 ] } },
    { "type": "Feature", "properties": { "name": "Abidjan", "pop_min": 3190395 }, "geometry": { "type": "Point", "coordinates": [ -4.020206835187587, 5.323126072244576 ] } },
    { "type": "Feature", "properties": { "name": "Brasília", "pop_min": 2562963 }, "geometry": { "type": "Point", "coordinates": [ -47.9179981, -15.7813944 ] } },
    { "type": "Feature", "properties": { "name": "Brussels", "pop_min": 1019022 }, "geometry": { "type": "Point", "coordinates": [ 4.3313707, 50.835262899999989 ] } },
    { "type": "Feature", "properties": { "name": "Dhaka", "pop_min": 7000940 }, "geometry": { "type": "Point", "coordinates": [ 90.4066336, 23.7250056 ] } },
    { "type": "Feature", "properties": { "name": "Luanda", "pop_min": 1951272 }, "geometry": { "type": "Point", "coordinates": [ 13.2324812, -8.8363403 ] } },
    { "type": "Feature", "properties": { "name": "Algiers", "pop_min": 1977663 }, "geometry": { "type": "Point", "coordinates": [ 3.0486067, 36.7650107 ] } },
    { "type": "Feature", "properties": { "name": "Yangon", "pop_min": 3301820 }, "geometry": { "type": "Point", "coordinates": [ 96.1647318, 16.7853 ] } },
    { "type": "Feature", "properties": { "name": "San Francisco", "pop_min": 732072 }, "geometry": { "type": "Point", "coordinates": [ -122.39959956304557, 37.784262651527897 ] } },
    { "type": "Feature", "properties": { "name": "Denver", "pop_min": 1548599 }, "geometry": { "type": "Point", "coordinates": [ -104.985961799999984, 39.7411339 ] } },
    { "type": "Feature", "properties": { "name": "Houston", "pop_min": 3647574 }, "geometry": { "type": "Point", "coordinates": [ -95.348436256722167, 29.741272831862538 ] } },
    { "type": "Feature", "properties": { "name": "Miami", "pop_min": 382894 }, "geometry": { "type": "Point", "coordinates": [ -80.2260519, 25.7895566 ] } },
    { "type": "Feature", "properties": { "name": "Atlanta", "pop_min": 422908 }, "geometry": { "type": "Point", "coordinates": [ -84.367641865713864, 33.739457283783466 ] } },
    { "type": "Feature", "properties": { "name": "Chicago", "pop_min": 2841952 }, "geometry": { "type": "Point", "coordinates": [ -87.635236553223379, 41.847961283364114 ] } },
    { "type": "Feature", "properties": { "name": "Caracas", "pop_min": 1815679 }, "geometry": { "type": "Point", "coordinates": [ -66.9189831, 10.5029444 ] } },
    { "type": "Feature", "properties": { "name": "Kyiv", "pop_min": 1662508 }, "geometry": { "type": "Point", "coordinates": [ 30.5146821, 50.4353132 ] } },
    { "type": "Feature", "properties": { "name": "Dubai", "pop_min": 1137347 }, "geometry": { "type": "Point", "coordinates": [ 55.286945613542457, 25.214911893712241 ] } },
    { "type": "Feature", "properties": { "name": "Tashkent", "pop_min": 1978028 }, "geometry": { "type": "Point", "coordinates": [ 69.268822942662609, 41.303828221561979 ] } },
    { "type": "Feature", "properties": { "name": "Madrid", "pop_min": 50437 }, "geometry": { "type": "Point", "coordinates": [ -3.6852975, 40.4019721 ] } },
    { "type": "Feature", "properties": { "name": "Geneva", "pop_min": 192385 }, "geometry": { "type": "Point", "coordinates": [ 6.140028, 46.210007499999989 ] } },
    { "type": "Feature", "properties": { "name": "Stockholm", "pop_min": 1253309 }, "geometry": { "type": "Point", "coordinates": [ 18.066300168534493, 59.324127204007475 ] } },
    { "type": "Feature", "properties": { "name": "Bangkok", "pop_min": 5104476 }, "geometry": { "type": "Point", "coordinates": [ 100.5146988, 13.7519451 ] } },
    { "type": "Feature", "properties": { "name": "Lima", "pop_min": 6758234 }, "geometry": { "type": "Point", "coordinates": [ -77.052008, -12.0460668 ] } },
    { "type": "Feature", "properties": { "name": "Dakar", "pop_min": 2476400 }, "geometry": { "type": "Point", "coordinates": [ -17.475076, 14.7177776 ] } },
    { "type": "Feature", "properties": { "name": "Johannesburg", "pop_min": 2026469 }, "geometry": { "type": "Point", "coordinates": [ 28.0280639, -26.168098900000018 ] } },
    { "type": "Feature", "properties": { "name": "Amsterdam", "pop_min": 741636 }, "geometry": { "type": "Point", "coordinates": [ 4.9146943, 52.351914499999985 ] } },
    { "type": "Feature", "properties": { "name": "Casablanca", "pop_min": 3144909 }, "geometry": { "type": "Point", "coordinates": [ -7.6183133, 33.6019221 ] } },
    { "type": "Feature", "properties": { "name": "Seoul", "pop_min": 9796000 }, "geometry": { "type": "Point", "coordinates": [ 126.997785099999987, 37.568295 ] } },
    { "type": "Feature", "properties": { "name": "Manila", "pop_min": 3077575 }, "geometry": { "type": "Point", "coordinates": [ 120.980271299999984, 14.6061048 ] } },
    { "type": "Feature", "properties": { "name": "Monterrey", "pop_min": 1122874 }, "geometry": { "type": "Point", "coordinates": [ -100.3319306, 25.671941 ] } },
    { "type": "Feature", "properties": { "name": "Berlin", "pop_min": 3094014 }, "geometry": { "type": "Point", "coordinates": [ 13.3996028, 52.5237645 ] } },
    { "type": "Feature", "properties": { "name": "Ürümqi", "pop_min": 1508225 }, "geometry": { "type": "Point", "coordinates": [ 87.5730598, 43.806958099999989 ] } },
    { "type": "Feature", "properties": { "name": "Chengdu", "pop_min": 3950437 }, "geometry": { "type": "Point", "coordinates": [ 104.0680736, 30.6719459 ] } },
    { "type": "Feature", "properties": { "name": "Ōsaka", "pop_min": 2592413 }, "geometry": { "type": "Point", "coordinates": [ 135.503754190062324, 34.691095244477907 ] } },
    { "type": "Feature", "properties": { "name": "Kinshasa", "pop_min": 5565703 }, "geometry": { "type": "Point", "coordinates": [ 15.313026, -4.327778200000012 ] } },
    { "type": "Feature", "properties": { "name": "New Delhi", "pop_min": 317797 }, "geometry": { "type": "Point", "coordinates": [ 77.19998, 28.600023 ] } },
    { "type": "Feature", "properties": { "name": "Bengaluru", "pop_min": 5104047 }, "geometry": { "type": "Point", "coordinates": [ 77.5580639, 12.971941 ] } },
    { "type": "Feature", "properties": { "name": "Athens", "pop_min": 729137 }, "geometry": { "type": "Point", "coordinates": [ 23.7313752, 37.985272099999989 ] } },
    { "type": "Feature", "properties": { "name": "Baghdad", "pop_min": 5054000 }, "geometry": { "type": "Point", "coordinates": [ 44.3919229, 33.3405944 ] } },
    { "type": "Feature", "properties": { "name": "Addis Ababa", "pop_min": 2757729 }, "geometry": { "type": "Point", "coordinates": [ 38.6980586, 9.035256199999989 ] } },
    { "type": "Feature", "properties": { "name": "Tehran", "pop_min": 7153309 }, "geometry": { "type": "Point", "coordinates": [ 51.4223982, 35.6738886 ] } },
    { "type": "Feature", "properties": { "name": "Vancouver", "pop_min": 603502 }, "geometry": { "type": "Point", "coordinates": [ -123.123590099999973, 49.2753624 ] } },
    { "type": "Feature", "properties": { "name": "Toronto", "pop_min": 3934421 }, "geometry": { "type": "Point", "coordinates": [ -79.389458554911926, 43.664644547434285 ] } },
    { "type": "Feature", "properties": { "name": "Buenos Aires", "pop_min": 10929146 }, "geometry": { "type": "Point", "coordinates": [ -58.432512687664257, -34.610714591392551 ] } },
    { "type": "Feature", "properties": { "name": "Kabul", "pop_min": 3043532 }, "geometry": { "type": "Point", "coordinates": [ 69.1813142, 34.5186361 ] } },
    { "type": "Feature", "properties": { "name": "Vienna", "pop_min": 1731000 }, "geometry": { "type": "Point", "coordinates": [ 16.3646931, 48.2019611 ] } },
    { "type": "Feature", "properties": { "name": "Melbourne", "pop_min": 93625 }, "geometry": { "type": "Point", "coordinates": [ 144.973070400000012, -37.818085500000016 ] } },
    { "type": "Feature", "properties": { "name": "Taipei", "pop_min": 2618772 }, "geometry": { "type": "Point", "coordinates": [ 121.5683333, 25.0358333 ] } },
    { "type": "Feature", "properties": { "name": "Auckland", "pop_min": 395982 }, "geometry": { "type": "Point", "coordinates": [ 174.763027, -36.8480549 ] } },
    { "type": "Feature", "properties": { "name": "Los Angeles", "pop_min": 3694820 }, "geometry": { "type": "Point", "coordinates": [ -118.231986472233174, 34.049219260337075 ] } },
    { "type": "Feature", "properties": { "name": "Washington,  D.C.", "pop_min": 552433 }, "geometry": { "type": "Point", "coordinates": [ -77.0113644, 38.9014952 ] } },
    { "type": "Feature", "properties": { "name": "New York", "pop_min": 8008278 }, "geometry": { "type": "Point", "coordinates": [ -73.995717543616976, 40.721561749727663 ] } },
    { "type": "Feature", "properties": { "name": "London", "pop_min": 7421209 }, "geometry": { "type": "Point", "coordinates": [ -0.1186677, 51.5019406 ] } },
    { "type": "Feature", "properties": { "name": "Istanbul", "pop_min": 9945610 }, "geometry": { "type": "Point", "coordinates": [ 28.974276816755545, 41.017601735072475 ] } },
    { "type": "Feature", "properties": { "name": "Riyadh", "pop_min": 4205961 }, "geometry": { "type": "Point", "coordinates": [ 46.720487024887696, 24.634497474837747 ] } },
    { "type": "Feature", "properties": { "name": "Cape Town", "pop_min": 2432858 }, "geometry": { "type": "Point", "coordinates": [ 18.4330423, -33.9180651 ] } },
    { "type": "Feature", "properties": { "name": "Moscow", "pop_min": 10452000 }, "geometry": { "type": "Point", "coordinates": [ 37.613577, 55.75411 ] } },
    { "type": "Feature", "properties": { "name": "Mexico City", "pop_min": 10811002 }, "geometry": { "type": "Point", "coordinates": [ -99.132934099999986, 19.444388299999989 ] } },
    { "type": "Feature", "properties": { "name": "Lagos", "pop_min": 1536 }, "geometry": { "type": "Point", "coordinates": [ 3.3895852, 6.4452075 ] } },
    { "type": "Feature", "properties": { "name": "Rome", "pop_min": 35452 }, "geometry": { "type": "Point", "coordinates": [ 12.4813126, 41.8979015 ] } },
    { "type": "Feature", "properties": { "name": "Beijing", "pop_min": 7480601 }, "geometry": { "type": "Point", "coordinates": [ 116.394200892606108, 39.901720309862668 ] } },
    { "type": "Feature", "properties": { "name": "Nairobi", "pop_min": 2750547 }, "geometry": { "type": "Point", "coordinates": [ 36.814711, -1.2814009 ] } },
    { "type": "Feature", "properties": { "name": "Jakarta", "pop_min": 8540121 }, "geometry": { "type": "Point", "coordinates": [ 106.8274918, -6.1724718 ] } },
    { "type": "Feature", "properties": { "name": "Bogota", "pop_min": 6333661 }, "geometry": { "type": "Point", "coordinates": [ -74.085289799999984, 4.5983694 ] } },
    { "type": "Feature", "properties": { "name": "Cairo", "pop_min": 7734614 }, "geometry": { "type": "Point", "coordinates": [ 31.2480224, 30.0519062 ] } },
    { "type": "Feature", "properties": { "name": "Shanghai", "pop_min": 14608512 }, "geometry": { "type": "Point", "coordinates": [ 121.434558800000019, 31.2183983 ] } },
    { "type": "Feature", "properties": { "name": "Tokyo", "pop_min": 8336599 }, "geometry": { "type": "Point", "coordinates": [ 139.749461599999989, 35.6869628 ] } },
    { "type": "Feature", "properties": { "name": "Mumbai", "pop_min": 12691836 }, "geometry": { "type": "Point", "coordinates": [ 72.875839397265295, 19.068408475291683 ] } },
    { "type": "Feature", "properties": { "name": "Paris", "pop_min": 11177 }, "geometry": { "type": "Point", "coordinates": [ 2.352992461539213, 48.858092316269108 ] } },
    { "type": "Feature", "properties": { "name": "Santiago", "pop_min": 46611 }, "geometry": { "type": "Point", "coordinates": [ -70.650504072857828, -33.440205069180756 ] } },
    { "type": "Feature", "properties": { "name": "Kolkata", "pop_min": 4631392 }, "geometry": { "type": "Point", "coordinates": [ 88.369125504438856, 22.569578883795785 ] } },
    { "type": "Feature", "properties": { "name": "Rio de Janeiro", "pop_min": 2010175 }, "geometry": { "type": "Point", "coordinates": [ -43.212117466834385, -22.907308056882368 ] } },
    { "type": "Feature", "properties": { "name": "São Paulo", "pop_min": 10021295 }, "geometry": { "type": "Point", "coordinates": [ -46.6269658, -23.5567337 ] } },
    { "type": "Feature", "properties": { "name": "Sydney", "pop_min": 3641422 }, "geometry": { "type": "Point", "coordinates": [ 151.212547774474871, -33.871373392183401 ] } },
    { "type": "Feature", "properties": { "name": "Singapore", "pop_min": 3289529 }, "geometry": { "type": "Point", "coordinates": [ 103.8538748, 1.2949793 ] } },
    { "type": "Feature", "properties": { "name": "Hong Kong", "pop_min": 4551579 }, "geometry": { "type": "Point", "coordinates": [ 114.183063500000017, 22.306926799999989 ] } }
    ]
    }